[
{
"name": "Glasswing",
"url": "https://glasswingshop.com/
",
"domain": "glasswingshop.com",
"city": "Seattle",
"region": "WA",
"country": "USA",
"address": "1525 Melrose Ave, Seattle, WA 98122",
"phone": "(206) 641-7646",
"category": "Clothing",
"commerce_platform": "Shopify",
"commerce_type": "products_ecommerce",
"has_online_checkout_or_booking": true,
"ordering_paths": ["/collections", "/products", "/cart", "/checkout"],
"delivery_pickup_options": ["shipping", "pickup"],
"hours": "Daily 11–6",
"lat_lng": { "lat": 47.6149, "lng": -122.3277 },
"notes": "Shopify storefront; checkout enabled."
},
{
"name": "PIPE AND ROW",
"url": "https://pipeandrow.com/
",
"domain": "pipeandrow.com",
"city": "Seattle",
"region": "WA",
"country": "USA",
"address": "1901 N 45th St, Seattle, WA 98103",
"phone": "(206) 632-0720",
"category": "Clothing",
"commerce_platform": "Shopify",
"commerce_type": "products_ecommerce",
"has_online_checkout_or_booking": true,
"ordering_paths": ["/collections/all", "/cart", "/checkout"],
"delivery_pickup_options": ["shipping", "pickup"],
"hours": "",
"lat_lng": null,
"notes": "Shopify; cart/checkout present."
},
{
"name": "Prism Seattle",
"url": "https://prismseattle.com/
",
"domain": "prismseattle.com",
"city": "Seattle",
"region": "WA",
"country": "USA",
"address": "5208 Ballard Ave NW, Seattle, WA 98107",
"phone": "",
"category": "Clothing",
"commerce_platform": "Shopify",
"commerce_type": "products_ecommerce",
"has_online_checkout_or_booking": true,
"ordering_paths": ["/collections/all", "/cart", "/checkout"],
"delivery_pickup_options": ["shipping", "pickup"],
"hours": "Daily",
"lat_lng": null,
"notes": "Shopify with Shop Pay."
},
{
"name": "Horseshoe Boutique",
"url": "https://shophorseshoe.com/
",
"domain": "shophorseshoe.com",
"city": "Seattle",
"region": "WA",
"country": "USA",
"address": "5344 Ballard Ave NW, Seattle, WA 98107",
"phone": "(206) 547-9639",
"category": "Clothing",
"commerce_platform": "Shopify",
"commerce_type": "products_ecommerce",
"has_online_checkout_or_booking": true,
"ordering_paths": ["/collections/all", "/cart", "/checkout"],
"delivery_pickup_options": ["shipping", "pickup"],
"hours": "",
"lat_lng": null,
"notes": "Shopify checkout enabled."
},
{
"name": "Standard Goods",
"url": "https://www.thestandardgoods.com/
",
"domain": "thestandardgoods.com",
"city": "Seattle",
"region": "WA",
"country": "USA",
"address": "",
"phone": "",
"category": "Gift Shop",
"commerce_platform": "Other/Unknown",
"commerce_type": "products_ecommerce",
"has_online_checkout_or_booking": true,
"ordering_paths": ["/s/shop", "/product"],
"delivery_pickup_options": ["shipping", "pickup"],
"hours": "",
"lat_lng": null,
"notes": "Online store with checkout on site."
},
{
"name": "LIKELIHOOD",
"url": "https://likelihood.us/
",
"domain": "likelihood.us",
"city": "Seattle",
"region": "WA",
"country": "USA",
"address": "1101 E Union St, Seattle, WA 98122",
"phone": "",
"category": "Sneakers & Apparel",
"commerce_platform": "Shopify",
"commerce_type": "products_ecommerce",
"has_online_checkout_or_booking": true,
"ordering_paths": ["/collections", "/products", "/cart", "/checkout"],
"delivery_pickup_options": ["shipping", "pickup"],
"hours": "",
"lat_lng": null,
"notes": "Shopify-based; online checkout."
},
{
"name": "Clementines",
"url": "https://www.clementines.com/
",
"domain": "clementines.com",
"city": "Seattle",
"region": "WA",
"country": "USA",
"address": "310 Occidental Ave S, Seattle, WA 98104",
"phone": "(206) 935-9400",
"category": "Shoes & Apparel",
"commerce_platform": "Shopify",
"commerce_type": "products_ecommerce",
"has_online_checkout_or_booking": true,
"ordering_paths": ["/collections", "/products", "/cart", "/checkout"],
"delivery_pickup_options": ["shipping", "pickup"],
"hours": "",
"lat_lng": null,
"notes": "Shopify with online checkout."
},
{
"name": "Pike Street Press",
"url": "https://pikestreetpress.com/
",
"domain": "pikestreetpress.com",
"city": "Seattle",
"region": "WA",
"country": "USA",
"address": "1510 1st Ave, Seattle, WA 98101",
"phone": "",
"category": "Stationery",
"commerce_platform": "Shopify",
"commerce_type": "products_ecommerce",
"has_online_checkout_or_booking": true,
"ordering_paths": ["/collections", "/products", "/cart", "/checkout"],
"delivery_pickup_options": ["shipping", "pickup"],
"hours": "Mon–Sun 10–6",
"lat_lng": null,
"notes": "Shopify store; checkout confirmed."
},
{
"name": "Elliott Bay Book Company",
"url": "https://www.elliottbaybook.com/
",
"domain": "elliottbaybook.com",
"city": "Seattle",
"region": "WA",
"country": "USA",
"address": "1521 10th Ave, Seattle, WA 98122",
"phone": "(206) 624-6600",
"category": "Bookstore",
"commerce_platform": "Other/Unknown",
"commerce_type": "products_ecommerce",
"has_online_checkout_or_booking": true,
"ordering_paths": ["/browse", "/cart"],
"delivery_pickup_options": ["shipping", "pickup"],
"hours": "",
"lat_lng": null,
"notes": "Online ordering via site; add-to-cart enabled."
},
{
"name": "Third Place Books (Ravenna/Seward Park/LFP)",
"url": "https://www.thirdplacebooks.com/
",
"domain": "thirdplacebooks.com",
"city": "Seattle",
"region": "WA",
"country": "USA",
"address": "",
"phone": "",
"category": "Bookstore",
"commerce_platform": "IndieCommerce",
"commerce_type": "products_ecommerce",
"has_online_checkout_or_booking": true,
"ordering_paths": ["/browse", "/cart", "/checkout"],
"delivery_pickup_options": ["shipping", "pickup"],
"hours": "",
"lat_lng": null,
"notes": "IndieCommerce with online checkout."
},
{
"name": "Secret Garden Books",
"url": "https://secretgardenbooks.com/
",
"domain": "secretgardenbooks.com",
"city": "Seattle",
"region": "WA",
"country": "USA",
"address": "2214 NW Market St, Seattle, WA 98107",
"phone": "(206) 789-5006",
"category": "Bookstore",
"commerce_platform": "IndieCommerce",
"commerce_type": "products_ecommerce",
"has_online_checkout_or_booking": true,
"ordering_paths": ["/browse", "/cart", "/checkout"],
"delivery_pickup_options": ["shipping", "pickup"],
"hours": "Sun 10–5; Mon–Fri 10–7; Sat 10–6",
"lat_lng": null,
"notes": "Online shopping via IndieCommerce."
},
{
"name": "Open Books: A Poem Emporium",
"url": "https://open-books-a-poem-emporium.myshopify.com/
",
"domain": "myshopify.com",
"city": "Seattle",
"region": "WA",
"country": "USA",
"address": "108 Cherry St, Seattle, WA 98104",
"phone": "(206) 633-0811",
"category": "Bookstore",
"commerce_platform": "Shopify",
"commerce_type": "products_ecommerce",
"has_online_checkout_or_booking": true,
"ordering_paths": ["/collections", "/products", "/cart", "/checkout"],
"delivery_pickup_options": ["shipping", "pickup"],
"hours": "",
"lat_lng": null,
"notes": "Shopify store for poetry titles."
},
{
"name": "MarketSpice",
"url": "https://www.marketspice.com/
",
"domain": "marketspice.com",
"city": "Seattle",
"region": "WA",
"country": "USA",
"address": "85A Pike St, Seattle, WA 98101",
"phone": "(206) 622-6340",
"category": "Specialty Food",
"commerce_platform": "WooCommerce",
"commerce_type": "products_ecommerce",
"has_online_checkout_or_booking": true,
"ordering_paths": ["/shop", "/cart", "/checkout"],
"delivery_pickup_options": ["shipping", "pickup"],
"hours": "",
"lat_lng": null,
"notes": "Tea & spices; WooCommerce checkout."
},
{
"name": "World Spice Merchants",
"url": "https://www.worldspice.com/
",
"domain": "worldspice.com",
"city": "Seattle",
"region": "WA",
"country": "USA",
"address": "1704 Western Ave, Seattle, WA 98101",
"phone": "(206) 682-7274",
"category": "Specialty Food",
"commerce_platform": "Shopify",
"commerce_type": "products_ecommerce",
"has_online_checkout_or_booking": true,
"ordering_paths": ["/collections", "/products", "/cart", "/checkout", "/subscriptions"],
"delivery_pickup_options": ["shipping", "pickup"],
"hours": "",
"lat_lng": null,
"notes": "Shopify store; subscriptions available."
},
{
"name": "Theo Chocolate",
"url": "https://www.theochocolate.com/
",
"domain": "theochocolate.com",
"city": "Seattle",
"region": "WA",
"country": "USA",
"address": "3400 Phinney Ave N, Seattle, WA 98103",
"phone": "",
"category": "Chocolate",
"commerce_platform": "Shopify",
"commerce_type": "products_ecommerce",
"has_online_checkout_or_booking": true,
"ordering_paths": ["/collections", "/products", "/cart", "/checkout"],
"delivery_pickup_options": ["shipping", "pickup"],
"hours": "",
"lat_lng": null,
"notes": "Direct-to-consumer online shop."
},
{
"name": "Fran's Chocolates",
"url": "https://www.franschocolates.com/
",
"domain": "franschocolates.com",
"city": "Seattle",
"region": "WA",
"country": "USA",
"address": "",
"phone": "",
"category": "Chocolate",
"commerce_platform": "Magento",
"commerce_type": "products_ecommerce",
"has_online_checkout_or_booking": true,
"ordering_paths": ["/shop", "/cart", "/checkout"],
"delivery_pickup_options": ["shipping", "pickup"],
"hours": "",
"lat_lng": null,
"notes": "Online ordering for chocolates/gifts."
},
{
"name": "Seattle Chocolate",
"url": "https://www.seattlechocolate.com/
",
"domain": "seattlechocolate.com",
"city": "Seattle",
"region": "WA",
"country": "USA",
"address": "",
"phone": "",
"category": "Chocolate",
"commerce_platform": "Shopify",
"commerce_type": "products_ecommerce",
"has_online_checkout_or_booking": true,
"ordering_paths": ["/collections", "/products", "/cart", "/checkout"],
"delivery_pickup_options": ["shipping"],
"hours": "",
"lat_lng": null,
"notes": "DTC shop; seasonal boxes."
},
{
"name": "Pike Place Fish Market",
"url": "https://www.pikeplacefish.com/
",
"domain": "pikeplacefish.com",
"city": "Seattle",
"region": "WA",
"country": "USA",
"address": "86 Pike Pl, Seattle, WA 98101",
"phone": "(206) 682-7181",
"category": "Seafood",
"commerce_platform": "WooCommerce",
"commerce_type": "products_ecommerce",
"has_online_checkout_or_booking": true,
"ordering_paths": ["/shop", "/cart", "/checkout"],
"delivery_pickup_options": ["shipping"],
"hours": "",
"lat_lng": null,
"notes": "Ships fresh seafood nationwide; WooCommerce."
},
{
"name": "Pure Food Fish Market",
"url": "https://www.purefoodfish.com/
",
"domain": "purefoodfish.com",
"city": "Seattle",
"region": "WA",
"country": "USA",
"address": "1511 Pike Pl, Seattle, WA 98101",
"phone": "(206) 622-5765",
"category": "Seafood",
"commerce_platform": "Shopify",
"commerce_type": "products_ecommerce",
"has_online_checkout_or_booking": true,
"ordering_paths": ["/collections", "/products", "/cart", "/checkout"],
"delivery_pickup_options": ["shipping"],
"hours": "",
"lat_lng": null,
"notes": "Online seafood orders; Shopify."
},
{
"name": "Beecher's Handmade Cheese",
"url": "https://www.beechershandmadecheese.com/
",
"domain": "beechershandmadecheese.com",
"city": "Seattle",
"region": "WA",
"country": "USA",
"address": "1600 Pike Pl, Seattle, WA 98101",
"phone": "",
"category": "Cheese",
"commerce_platform": "BigCommerce",
"commerce_type": "products_ecommerce",
"has_online_checkout_or_booking": true,
"ordering_paths": ["/collections", "/cart", "/checkout", "/shop"],
"delivery_pickup_options": ["shipping"],
"hours": "",
"lat_lng": null,
"notes": "Ships cheese/gifts; checkout on site."
},
{
"name": "DeLaurenti Food & Wine",
"url": "https://www.delaurenti.com/
",
"domain": "delaurenti.com",
"city": "Seattle",
"region": "WA",
"country": "USA",
"address": "1435 1st Ave, Seattle, WA 98101",
"phone": "",
"category": "Gourmet Grocery",
"commerce_platform": "Shopify",
"commerce_type": "mixed",
"has_online_checkout_or_booking": true,
"ordering_paths": ["/shop", "/products", "/cart", "/checkout", "/order-online"],
"delivery_pickup_options": ["shipping", "pickup", "delivery"],
"hours": "",
"lat_lng": null,
"notes": "Groceries/gift baskets; some prepared food ordering."
},
{
"name": "Uwajimaya (Seattle)",
"url": "https://www.uwajimaya.com/
",
"domain": "uwajimaya.com",
"city": "Seattle",
"region": "WA",
"country": "USA",
"address": "600 5th Ave S, Seattle, WA 98104",
"phone": "",
"category": "Grocery",
"commerce_platform": "Other/Unknown",
"commerce_type": "mixed",
"has_online_checkout_or_booking": true,
"ordering_paths": ["/shop", "/order"],
"delivery_pickup_options": ["shipping", "pickup"],
"hours": "",
"lat_lng": null,
"notes": "Online shopping for select items/gifts."
},
{
"name": "Mox Boarding House (Seattle)",
"url": "https://www.moxboardinghouse.com/
",
"domain": "moxboardinghouse.com",
"city": "Seattle",
"region": "WA",
"country": "USA",
"address": "5105 Leary Ave NW, Seattle, WA 98107",
"phone": "",
"category": "Games & Hobby",
"commerce_platform": "Magento",
"commerce_type": "mixed",
"has_online_checkout_or_booking": true,
"ordering_paths": ["/shop", "/cart", "/checkout", "/events"],
"delivery_pickup_options": ["shipping", "pickup", "digital"],
"hours": "",
"lat_lng": null,
"notes": "Online store; event booking."
},
{
"name": "Light In The Attic Records",
"url": "https://lightintheattic.net/
",
"domain": "lightintheattic.net",
"city": "Seattle",
"region": "WA",
"country": "USA",
"address": "",
"phone": "",
"category": "Record Label/Store",
"commerce_platform": "Shopify",
"commerce_type": "products_ecommerce",
"has_online_checkout_or_booking": true,
"ordering_paths": ["/collections", "/products", "/cart", "/checkout"],
"delivery_pickup_options": ["shipping"],
"hours": "",
"lat_lng": null,
"notes": "Seattle-based label with online shop."
},
{
"name": "Easy Street Records",
"url": "https://easystreetonline.com/
",
"domain": "easystreetonline.com",
"city": "Seattle",
"region": "WA",
"country": "USA",
"address": "4559 California Ave SW, Seattle, WA 98116",
"phone": "",
"category": "Record Store",
"commerce_platform": "Shopify",
"commerce_type": "products_ecommerce",
"has_online_checkout_or_booking": true,
"ordering_paths": ["/collections/all", "/cart", "/checkout"],
"delivery_pickup_options": ["shipping", "pickup"],
"hours": "",
"lat_lng": null,
"notes": "Online vinyl & merch."
},
{
"name": "Silver Platters",
"url": "https://www.silverplatters.com/
",
"domain": "silverplatters.com",
"city": "Seattle",
"region": "WA",
"country": "USA",
"address": "2930 1st Ave S, Seattle, WA 98134",
"phone": "",
"category": "Record Store",
"commerce_platform": "IndieCommerce",
"commerce_type": "products_ecommerce",
"has_online_checkout_or_booking": true,
"ordering_paths": ["/New", "/Used", "/cart", "/checkout"],
"delivery_pickup_options": ["shipping", "pickup"],
"hours": "",
"lat_lng": null,
"notes": "Online catalog & checkout."
},
{
"name": "Dusty Strings",
"url": "https://www.dustystrings.com/
",
"domain": "dustystrings.com",
"city": "Seattle",
"region": "WA",
"country": "USA",
"address": "3406 Fremont Ave N, Seattle, WA 98103",
"phone": "",
"category": "Music Instruments",
"commerce_platform": "Other/Unknown",
"commerce_type": "mixed",
"has_online_checkout_or_booking": true,
"ordering_paths": ["/store", "/cart", "/checkout", "/classes"],
"delivery_pickup_options": ["shipping", "pickup", "digital"],
"hours": "",
"lat_lng": null,
"notes": "Instrument store + class booking."
},
{
"name": "American Music",
"url": "https://www.americanmusic.com/
",
"domain": "americanmusic.com",
"city": "Seattle",
"region": "WA",
"country": "USA",
"address": "4450 Fremont Ave N, Seattle, WA 98103",
"phone": "",
"category": "Music Instruments",
"commerce_platform": "WooCommerce",
"commerce_type": "products_ecommerce",
"has_online_checkout_or_booking": true,
"ordering_paths": ["/shop", "/cart", "/checkout"],
"delivery_pickup_options": ["shipping", "pickup"],
"hours": "",
"lat_lng": null,
"notes": "Ecommerce enabled."
},
{
"name": "Emerald City Guitars",
"url": "https://emeraldcityguitars.com/
",
"domain": "emeraldcityguitars.com",
"city": "Seattle",
"region": "WA",
"country": "USA",
"address": "83 S Washington St, Seattle, WA 98104",
"phone": "",
"category": "Music Instruments",
"commerce_platform": "Shopify",
"commerce_type": "products_ecommerce",
"has_online_checkout_or_booking": true,
"ordering_paths": ["/shop", "/products", "/checkout"],
"delivery_pickup_options": ["shipping", "pickup"],
"hours": "",
"lat_lng": null,
"notes": "Online inventory & checkout."
},
{
"name": "Ballard Blossom",
"url": "https://ballardblossom.com/
",
"domain": "ballardblossom.com",
"city": "Seattle",
"region": "WA",
"country": "USA",
"address": "1111 NW 85th St, Seattle, WA 98117",
"phone": "(206) 782-4213",
"category": "Florist",
"commerce_platform": "Florist-specific",
"commerce_type": "products_ecommerce",
"has_online_checkout_or_booking": true,
"ordering_paths": ["/flowers", "/cart", "/checkout"],
"delivery_pickup_options": ["delivery", "pickup"],
"hours": "",
"lat_lng": null,
"notes": "Local delivery; online checkout."
},
{
"name": "Terra Bella Flowers",
"url": "https://www.terrabellaflowers.com/
",
"domain": "terrabellaflowers.com",
"city": "Seattle",
"region": "WA",
"country": "USA",
"address": "7321 Greenwood Ave N, Seattle, WA 98103",
"phone": "",
"category": "Florist",
"commerce_platform": "Florist-specific",
"commerce_type": "products_ecommerce",
"has_online_checkout_or_booking": true,
"ordering_paths": ["/shop", "/cart", "/checkout"],
"delivery_pickup_options": ["delivery", "pickup"],
"hours": "Mon–Fri 9–4; Sat 10–3",
"lat_lng": null,
"notes": "Online floral ordering."
},
{
"name": "Juniper Flowers",
"url": "https://juniperflowers.com/
",
"domain": "juniperflowers.com",
"city": "Seattle",
"region": "WA",
"country": "USA",
"address": "7700 1st Ave NE, Seattle, WA 98115",
"phone": "",
"category": "Florist",
"commerce_platform": "Florist-specific",
"commerce_type": "products_ecommerce",
"has_online_checkout_or_booking": true,
"ordering_paths": ["/shop", "/cart", "/checkout"],
"delivery_pickup_options": ["delivery", "pickup"],
"hours": "",
"lat_lng": null,
"notes": "Local florist with online ordering."
},
{
"name": "The Palm Room",
"url": "https://thepalmroomshop.com/
",
"domain": "thepalmroomshop.com",
"city": "Seattle",
"region": "WA",
"country": "USA",
"address": "5336 Ballard Ave NW, Seattle, WA 98107",
"phone": "",
"category": "Plant Shop",
"commerce_platform": "Shopify",
"commerce_type": "products_ecommerce",
"has_online_checkout_or_booking": true,
"ordering_paths": ["/collections", "/products", "/cart", "/checkout"],
"delivery_pickup_options": ["pickup"],
"hours": "",
"lat_lng": null,
"notes": "Shopify; plants & decor."
},
{
"name": "Kobo Shop & Gallery",
"url": "https://koboseattle.com/
",
"domain": "koboseattle.com",
"city": "Seattle",
"region": "WA",
"country": "USA",
"address": "602-608 S Jackson St, Seattle, WA 98104",
"phone": "",
"category": "Home & Gifts",
"commerce_platform": "Shopify",
"commerce_type": "products_ecommerce",
"has_online_checkout_or_booking": true,
"ordering_paths": ["/collections", "/cart", "/checkout"],
"delivery_pickup_options": ["shipping", "pickup"],
"hours": "",
"lat_lng": null,
"notes": "Japanese/PNW design goods; Shopify."
},
{
"name": "Momo Seattle",
"url": "https://www.momoseattle.com/
",
"domain": "momoseattle.com",
"city": "Seattle",
"region": "WA",
"country": "USA",
"address": "600 S Jackson St, Seattle, WA 98104",
"phone": "",
"category": "Boutique",
"commerce_platform": "Square",
"commerce_type": "products_ecommerce",
"has_online_checkout_or_booking": true,
"ordering_paths": ["/shop", "/cart", "/checkout"],
"delivery_pickup_options": ["pickup", "shipping"],
"hours": "",
"lat_lng": null,
"notes": "Square Online checkout."
},
{
"name": "The Handmade Showroom",
"url": "https://thehandmadeshowroom.com/
",
"domain": "thehandmadeshowroom.com",
"city": "Seattle",
"region": "WA",
"country": "USA",
"address": "Pacific Place, Seattle, WA",
"phone": "",
"category": "Handmade Goods",
"commerce_platform": "Shopify",
"commerce_type": "products_ecommerce",
"has_online_checkout_or_booking": true,
"ordering_paths": ["/collections", "/cart", "/checkout"],
"delivery_pickup_options": ["shipping", "pickup"],
"hours": "",
"lat_lng": null,
"notes": "Local maker marketplace; Shopify."
},
{
"name": "Flora and Henri",
"url": "https://floraandhenri.com/
",
"domain": "floraandhenri.com",
"city": "Seattle",
"region": "WA",
"country": "USA",
"address": "",
"phone": "",
"category": "Lifestyle & Kids",
"commerce_platform": "Shopify",
"commerce_type": "products_ecommerce",
"has_online_checkout_or_booking": true,
"ordering_paths": ["/collections", "/products", "/checkout"],
"delivery_pickup_options": ["shipping", "pickup"],
"hours": "",
"lat_lng": null,
"notes": "Luxury children & lifestyle goods."
},
{
"name": "Station 7",
"url": "https://www.station7seattle.com/
",
"domain": "station7seattle.com",
"city": "Seattle",
"region": "WA",
"country": "USA",
"address": "4000 S Edmunds St, Seattle, WA 98118",
"phone": "",
"category": "Home & Gifts",
"commerce_platform": "Square",
"commerce_type": "products_ecommerce",
"has_online_checkout_or_booking": true,
"ordering_paths": ["/shop", "/cart", "/checkout"],
"delivery_pickup_options": ["pickup", "shipping"],
"hours": "",
"lat_lng": null,
"notes": "Square Online store."
},
{
"name": "Drygoods Design",
"url": "https://drygoodsdesignonline.com/
",
"domain": "drygoodsdesignonline.com",
"city": "Seattle",
"region": "WA",
"country": "USA",
"address": "301 Occidental Ave S, Seattle, WA 98104",
"phone": "",
"category": "Fabric & Craft",
"commerce_platform": "Shopify",
"commerce_type": "mixed",
"has_online_checkout_or_booking": true,
"ordering_paths": ["/collections", "/cart", "/checkout", "/classes"],
"delivery_pickup_options": ["shipping", "pickup", "digital"],
"hours": "",
"lat_lng": null,
"notes": "Shopify; also class bookings."
},
{
"name": "Paper Delights",
"url": "https://www.paperdelights.com/
",
"domain": "paperdelights.com",
"city": "Seattle",
"region": "WA",
"country": "USA",
"address": "5323 Ballard Ave NW, Seattle, WA 98107",
"phone": "",
"category": "Stationery",
"commerce_platform": "Squarespace",
"commerce_type": "products_ecommerce",
"has_online_checkout_or_booking": true,
"ordering_paths": ["/shop", "/cart", "/checkout"],
"delivery_pickup_options": ["pickup", "shipping"],
"hours": "",
"lat_lng": null,
"notes": "Squarespace Commerce."
},
{
"name": "Paper Hammer",
"url": "https://shop.paper-hammer.com/
",
"domain": "paper-hammer.com",
"city": "Seattle",
"region": "WA",
"country": "USA",
"address": "1400 2nd Ave, Seattle, WA 98101",
"phone": "",
"category": "Stationery",
"commerce_platform": "Shopify",
"commerce_type": "products_ecommerce",
"has_online_checkout_or_booking": true,
"ordering_paths": ["/collections", "/cart", "/checkout"],
"delivery_pickup_options": ["shipping"],
"hours": "",
"lat_lng": null,
"notes": "Letterpress goods; Shopify."
},
{
"name": "Ugly Baby",
"url": "https://uglybabyshop.com/
",
"domain": "uglybabyshop.com",
"city": "Seattle",
"region": "WA",
"country": "USA",
"address": "1430 1st Ave, Seattle, WA 98101",
"phone": "",
"category": "Gift Shop",
"commerce_platform": "Shopify",
"commerce_type": "products_ecommerce",
"has_online_checkout_or_booking": true,
"ordering_paths": ["/collections/all", "/cart", "/checkout"],
"delivery_pickup_options": ["shipping", "pickup"],
"hours": "",
"lat_lng": null,
"notes": "Quirky gifts; Shopify."
},
{
"name": "Feathered Friends",
"url": "https://featheredfriends.com/
",
"domain": "featheredfriends.com",
"city": "Seattle",
"region": "WA",
"country": "USA",
"address": "119 Yale Ave N, Seattle, WA 98109",
"phone": "(206) 292-2210",
"category": "Outdoor Gear",
"commerce_platform": "Shopify",
"commerce_type": "products_ecommerce",
"has_online_checkout_or_booking": true,
"ordering_paths": ["/collections", "/products", "/cart", "/checkout"],
"delivery_pickup_options": ["shipping", "pickup"],
"hours": "Mon–Sat 10–6; Sun 11–5",
"lat_lng": null,
"notes": "Seattle-made down gear; Shopify."
},
{
"name": "Metier Seattle",
"url": "https://www.metierseattle.com/
",
"domain": "metierseattle.com",
"city": "Seattle",
"region": "WA",
"country": "USA",
"address": "1017 E Union St, Seattle, WA 98122",
"phone": "",
"category": "Cycling & Fitness",
"commerce_platform": "Shopify",
"commerce_type": "mixed",
"has_online_checkout_or_booking": true,
"ordering_paths": ["/shop", "/products", "/cart", "/checkout", "/book"],
"delivery_pickup_options": ["shipping", "pickup", "service"],
"hours": "",
"lat_lng": null,
"notes": "Retail + gym services; online booking."
},
{
"name": "Montlake Bicycle Shop",
"url": "https://montlakebike.com/
",
"domain": "montlakebike.com",
"city": "Seattle",
"region": "WA",
"country": "USA",
"address": "2901 NE Blakeley St, Seattle, WA 98105",
"phone": "",
"category": "Bike Shop",
"commerce_platform": "Lightspeed/Other",
"commerce_type": "mixed",
"has_online_checkout_or_booking": true,
"ordering_paths": ["/product-list", "/cart", "/checkout", "/service/schedule"],
"delivery_pickup_options": ["pickup", "shipping", "service"],
"hours": "",
"lat_lng": null,
"notes": "E-comm catalog + service booking."
},
{
"name": "Cascade Bicycle Studio",
"url": "https://cascadebicyclestudio.com/
",
"domain": "cascadebicyclestudio.com",
"city": "Seattle",
"region": "WA",
"country": "USA",
"address": "2410 E Union St, Seattle, WA 98122",
"phone": "",
"category": "Bike Fitting",
"commerce_platform": "Acuity",
"commerce_type": "service_booking",
"has_online_checkout_or_booking": true,
"ordering_paths": ["/book", "/schedule", "/appointments"],
"delivery_pickup_options": ["service"],
"hours": "",
"lat_lng": null,
"notes": "Online fitting appointment booking."
},
{
"name": "Elm Coffee Roasters",
"url": "https://elmcoffeeroasters.com/
",
"domain": "elmcoffeeroasters.com",
"city": "Seattle",
"region": "WA",
"country": "USA",
"address": "240 2nd Ave S #103, Seattle, WA 98104",
"phone": "",
"category": "Coffee Roaster",
"commerce_platform": "Shopify",
"commerce_type": "products_ecommerce",
"has_online_checkout_or_booking": true,
"ordering_paths": ["/collections/coffee", "/cart", "/checkout", "/subscriptions"],
"delivery_pickup_options": ["shipping", "pickup", "digital"],
"hours": "",
"lat_lng": null,
"notes": "Coffee & subscriptions; Shopify."
},
{
"name": "Caffè Vita",
"url": "https://www.caffevita.com/
",
"domain": "caffevita.com",
"city": "Seattle",
"region": "WA",
"country": "USA",
"address": "",
"phone": "",
"category": "Coffee Roaster",
"commerce_platform": "Shopify",
"commerce_type": "mixed",
"has_online_checkout_or_booking": true,
"ordering_paths": ["/collections/coffee", "/cart", "/checkout", "/subscriptions"],
"delivery_pickup_options": ["shipping", "pickup", "digital"],
"hours": "",
"lat_lng": null,
"notes": "Beans, gear, subscriptions."
},
{
"name": "Herkimer Coffee",
"url": "https://www.herkimercoffee.com/
",
"domain": "herkimercoffee.com",
"city": "Seattle",
"region": "WA",
"country": "USA",
"address": "",
"phone": "",
"category": "Coffee Roaster",
"commerce_platform": "Squarespace",
"commerce_type": "products_ecommerce",
"has_online_checkout_or_booking": true,
"ordering_paths": ["/shop/coffee", "/cart", "/checkout"],
"delivery_pickup_options": ["shipping"],
"hours": "",
"lat_lng": null,
"notes": "Squarespace Commerce."
},
{
"name": "Lighthouse Roasters",
"url": "https://www.lighthouseroasters.com/
",
"domain": "lighthouseroasters.com",
"city": "Seattle",
"region": "WA",
"country": "USA",
"address": "400 N 43rd St, Seattle, WA 98103",
"phone": "",
"category": "Coffee Roaster",
"commerce_platform": "Shopify",
"commerce_type": "products_ecommerce",
"has_online_checkout_or_booking": true,
"ordering_paths": ["/collections/coffee", "/cart", "/checkout"],
"delivery_pickup_options": ["shipping", "pickup"],
"hours": "",
"lat_lng": null,
"notes": "Online coffee ordering."
},
{
"name": "Victrola Coffee Roasters",
"url": "https://www.victrolacoffee.com/
",
"domain": "victrolacoffee.com",
"city": "Seattle",
"region": "WA",
"country": "USA",
"address": "",
"phone": "",
"category": "Coffee Roaster",
"commerce_platform": "WooCommerce",
"commerce_type": "products_ecommerce",
"has_online_checkout_or_booking": true,
"ordering_paths": ["/store", "/cart", "/checkout"],
"delivery_pickup_options": ["shipping"],
"hours": "",
"lat_lng": null,
"notes": "WooCommerce checkout."
},
{
"name": "Seattle Coffee Works",
"url": "https://seattlecoffeeworks.com/
",
"domain": "seattlecoffeeworks.com",
"city": "Seattle",
"region": "WA",
"country": "USA",
"address": "107 Pike St, Seattle, WA 98101",
"phone": "",
"category": "Coffee Roaster",
"commerce_platform": "Shopify",
"commerce_type": "products_ecommerce",
"has_online_checkout_or_booking": true,
"ordering_paths": ["/collections", "/cart", "/checkout", "/subscriptions"],
"delivery_pickup_options": ["shipping", "digital"],
"hours": "",
"lat_lng": null,
"notes": "Beans & subscriptions."
},
{
"name": "Fonte Coffee",
"url": "https://www.fontecoffee.com/
",
"domain": "fontecoffee.com",
"city": "Seattle",
"region": "WA",
"country": "USA",
"address": "",
"phone": "",
"category": "Coffee Roaster",
"commerce_platform": "BigCommerce",
"commerce_type": "products_ecommerce",
"has_online_checkout_or_booking": true,
"ordering_paths": ["/coffee", "/cart", "/checkout"],
"delivery_pickup_options": ["shipping"],
"hours": "",
"lat_lng": null,
"notes": "Online coffee orders."
},
{
"name": "Fulcrum Coffee",
"url": "https://www.fulcrumcoffee.com/
",
"domain": "fulcrumcoffee.com",
"city": "Seattle",
"region": "WA",
"country": "USA",
"address": "5901 Airport Way S, Seattle, WA 98108",
"phone": "",
"category": "Coffee Roaster",
"commerce_platform": "Shopify",
"commerce_type": "products_ecommerce",
"has_online_checkout_or_booking": true,
"ordering_paths": ["/shop", "/cart", "/checkout", "/subscriptions"],
"delivery_pickup_options": ["shipping", "digital"],
"hours": "",
"lat_lng": null,
"notes": "Beans; subscriptions; Shopify."
},
{
"name": "Kuma Coffee",
"url": "https://www.kumacoffee.com/
",
"domain": "kumacoffee.com",
"city": "Seattle",
"region": "WA",
"country": "USA",
"address": "",
"phone": "",
"category": "Coffee Roaster",
"commerce_platform": "Squarespace",
"commerce_type": "products_ecommerce",
"has_online_checkout_or_booking": true,
"ordering_paths": ["/shop", "/cart", "/checkout"],
"delivery_pickup_options": ["shipping"],
"hours": "",
"lat_lng": null,
"notes": "Squarespace Commerce."
},
{
"name": "Anchorhead Coffee",
"url": "https://www.anchorheadcoffee.com/
",
"domain": "anchorheadcoffee.com",
"city": "Seattle",
"region": "WA",
"country": "USA",
"address": "",
"phone": "",
"category": "Coffee Roaster",
"commerce_platform": "Shopify",
"commerce_type": "mixed",
"has_online_checkout_or_booking": true,
"ordering_paths": ["/shop", "/cart", "/checkout", "/subscriptions", "/order-online"],
"delivery_pickup_options": ["shipping", "pickup", "delivery"],
"hours": "",
"lat_lng": null,
"notes": "Beans online; cafe ordering."
},
{
"name": "Storyville Coffee",
"url": "https://www.storyville.com/
",
"domain": "storyville.com",
"city": "Seattle",
"region": "WA",
"country": "USA",
"address": "",
"phone": "",
"category": "Coffee Roaster",
"commerce_platform": "Custom/Other",
"commerce_type": "products_ecommerce",
"has_online_checkout_or_booking": true,
"ordering_paths": ["/collections/coffee", "/cart", "/checkout"],
"delivery_pickup_options": ["shipping"],
"hours": "",
"lat_lng": null,
"notes": "Online coffee orders."
},
{
"name": "Macrina Bakery",
"url": "https://macrinabakery.com/
",
"domain": "macrinabakery.com",
"city": "Seattle",
"region": "WA",
"country": "USA",
"address": "",
"phone": "",
"category": "Bakery",
"commerce_platform": "Toast",
"commerce_type": "restaurant_ordering",
"has_online_checkout_or_booking": true,
"ordering_paths": ["/order", "/order-online"],
"delivery_pickup_options": ["pickup", "delivery"],
"hours": "",
"lat_lng": null,
"notes": "Direct online ordering via Toast."
},
{
"name": "Temple Pastries",
"url": "https://www.templepastries.com/
",
"domain": "templepastries.com",
"city": "Seattle",
"region": "WA",
"country": "USA",
"address": "2309 E Madison St, Seattle, WA 98112",
"phone": "",
"category": "Bakery",
"commerce_platform": "Square",
"commerce_type": "restaurant_ordering",
"has_online_checkout_or_booking": true,
"ordering_paths": ["/order", "/shop"],
"delivery_pickup_options": ["pickup"],
"hours": "",
"lat_lng": null,
"notes": "Online pre-orders available."
},
{
"name": "Mighty-O Donuts",
"url": "https://mightyo.com/
",
"domain": "mightyo.com",
"city": "Seattle",
"region": "WA",
"country": "USA",
"address": "",
"phone": "",
"category": "Donuts",
"commerce_platform": "Toast",
"commerce_type": "restaurant_ordering",
"has_online_checkout_or_booking": true,
"ordering_paths": ["/order-online", "/locations"],
"delivery_pickup_options": ["pickup", "delivery"],
"hours": "",
"lat_lng": null,
"notes": "Toast online ordering."
},
{
"name": "Top Pot Doughnuts",
"url": "https://www.toppotdoughnuts.com/
",
"domain": "toppotdoughnuts.com",
"city": "Seattle",
"region": "WA",
"country": "USA",
"address": "",
"phone": "",
"category": "Donuts",
"commerce_platform": "Other/Unknown",
"commerce_type": "restaurant_ordering",
"has_online_checkout_or_booking": true,
"ordering_paths": ["/order", "/catering"],
"delivery_pickup_options": ["pickup", "delivery"],
"hours": "",
"lat_lng": null,
"notes": "Online ordering for pickup/catering."
},
{
"name": "Piroshky Piroshky",
"url": "https://piroshkybakery.com/
",
"domain": "piroshkybakery.com",
"city": "Seattle",
"region": "WA",
"country": "USA",
"address": "1908 Pike Pl, Seattle, WA 98101",
"phone": "",
"category": "Bakery",
"commerce_platform": "Shopify + Toast",
"commerce_type": "mixed",
"has_online_checkout_or_booking": true,
"ordering_paths": ["/shop", "/cart", "/checkout", "/order"],
"delivery_pickup_options": ["shipping", "pickup", "delivery"],
"hours": "",
"lat_lng": null,
"notes": "Nationwide shipping + local pickup ordering."
},
{
"name": "Trophy Cupcakes",
"url": "https://www.trophycupcakes.com/
",
"domain": "trophycupcakes.com",
"city": "Seattle",
"region": "WA",
"country": "USA",
"address": "",
"phone": "",
"category": "Bakery",
"commerce_platform": "Squarespace/Custom",
"commerce_type": "restaurant_ordering",
"has_online_checkout_or_booking": true,
"ordering_paths": ["/order", "/shop"],
"delivery_pickup_options": ["pickup", "delivery"],
"hours": "",
"lat_lng": null,
"notes": "Order cupcakes online."
},
{
"name": "Lady Yum",
"url": "https://ladyyum.com/
",
"domain": "ladyyum.com",
"city": "Seattle",
"region": "WA",
"country": "USA",
"address": "",
"phone": "",
"category": "Bakery",
"commerce_platform": "Shopify",
"commerce_type": "mixed",
"has_online_checkout_or_booking": true,
"ordering_paths": ["/collections", "/cart", "/checkout", "/order"],
"delivery_pickup_options": ["shipping", "pickup", "delivery"],
"hours": "",
"lat_lng": null,
"notes": "Macarons shipped or pickup."
},
{
"name": "Hot Cakes",
"url": "https://www.getyourhotcakes.com/
",
"domain": "getyourhotcakes.com",
"city": "Seattle",
"region": "WA",
"country": "USA",
"address": "5427 Ballard Ave NW, Seattle, WA 98107",
"phone": "",
"category": "Dessert Shop",
"commerce_platform": "Shopify + Tock",
"commerce_type": "mixed",
"has_online_checkout_or_booking": true,
"ordering_paths": ["/shop", "/cart", "/checkout", "/order"],
"delivery_pickup_options": ["shipping", "pickup", "delivery"],
"hours": "",
"lat_lng": null,
"notes": "Molten cakes shipped; local ordering."
},
{
"name": "Hello Robin",
"url": "https://hellorobin.com/
",
"domain": "hellorobin.com",
"city": "Seattle",
"region": "WA",
"country": "USA",
"address": "522 19th Ave E, Seattle, WA 98112",
"phone": "",
"category": "Bakery",
"commerce_platform": "Toast",
"commerce_type": "restaurant_ordering",
"has_online_checkout_or_booking": true,
"ordering_paths": ["/order", "/order-online"],
"delivery_pickup_options": ["pickup", "delivery", "shipping"],
"hours": "",
"lat_lng": null,
"notes": "Cookie orders online."
},
{
"name": "Byen Bakeri",
"url": "https://order.toasttab.com/online/byen-bakeri-15-nickerson-street
",
"domain": "toasttab.com",
"city": "Seattle",
"region": "WA",
"country": "USA",
"address": "15 Nickerson St, Seattle, WA 98109",
"phone": "",
"category": "Bakery",
"commerce_platform": "Toast",
"commerce_type": "restaurant_ordering",
"has_online_checkout_or_booking": true,
"ordering_paths": ["/online/byen-bakeri-15-nickerson-street"],
"delivery_pickup_options": ["pickup", "delivery"],
"hours": "",
"lat_lng": null,
"notes": "Toast online ordering."
},
{
"name": "Fujisan Bakery (Fuji Bakery)",
"url": "https://www.fujibakeryinc.com/s/order
",
"domain": "fujibakeryinc.com",
"city": "Seattle",
"region": "WA",
"country": "USA",
"address": "",
"phone": "",
"category": "Bakery",
"commerce_platform": "Square",
"commerce_type": "restaurant_ordering",
"has_online_checkout_or_booking": true,
"ordering_paths": ["/s/order"],
"delivery_pickup_options": ["pickup"],
"hours": "",
"lat_lng": null,
"notes": "Square ordering page."
},
{
"name": "Pagliacci Pizza",
"url": "https://www.pagliacci.com/
",
"domain": "pagliacci.com",
"city": "Seattle",
"region": "WA",
"country": "USA",
"address": "",
"phone": "",
"category": "Restaurant",
"commerce_platform": "Custom/Other",
"commerce_type": "restaurant_ordering",
"has_online_checkout_or_booking": true,
"ordering_paths": ["/order", "/order/start"],
"delivery_pickup_options": ["delivery", "pickup"],
"hours": "",
"lat_lng": null,
"notes": "First-party online ordering."
},
{
"name": "Katsu Burger",
"url": "https://www.katsuburger.com/
",
"domain": "katsuburger.com",
"city": "Seattle",
"region": "WA",
"country": "USA",
"address": "",
"phone": "",
"category": "Restaurant",
"commerce_platform": "Square/Toast",
"commerce_type": "restaurant_ordering",
"has_online_checkout_or_booking": true,
"ordering_paths": ["/order-online"],
"delivery_pickup_options": ["pickup", "delivery"],
"hours": "",
"lat_lng": null,
"notes": "Direct ordering links."
},
{
"name": "Marination",
"url": "https://www.marinationmobile.com/
",
"domain": "marinationmobile.com",
"city": "Seattle",
"region": "WA",
"country": "USA",
"address": "",
"phone": "",
"category": "Restaurant",
"commerce_platform": "Toast",
"commerce_type": "restaurant_ordering",
"has_online_checkout_or_booking": true,
"ordering_paths": ["/order", "/order-online"],
"delivery_pickup_options": ["pickup", "delivery"],
"hours": "",
"lat_lng": null,
"notes": "Online ordering via Toast."
},
{
"name": "Homegrown",
"url": "https://www.eathomegrown.com/
",
"domain": "eathomegrown.com",
"city": "Seattle",
"region": "WA",
"country": "USA",
"address": "",
"phone": "",
"category": "Restaurant",
"commerce_platform": "Olo/Other",
"commerce_type": "restaurant_ordering",
"has_online_checkout_or_booking": true,
"ordering_paths": ["/order"],
"delivery_pickup_options": ["pickup", "delivery"],
"hours": "",
"lat_lng": null,
"notes": "Direct online ordering."
},
{
"name": "Evergreens",
"url": "https://www.evergreens.com/
",
"domain": "evergreens.com",
"city": "Seattle",
"region": "WA",
"country": "USA",
"address": "",
"phone": "",
"category": "Restaurant",
"commerce_platform": "Olo/Other",
"commerce_type": "restaurant_ordering",
"has_online_checkout_or_booking": true,
"ordering_paths": ["/order"],
"delivery_pickup_options": ["pickup", "delivery"],
"hours": "",
"lat_lng": null,
"notes": "Direct ordering from brand."
},
{
"name": "Musang Seattle (Family Meal/Events)",
"url": "https://www.musangseattle.com/
",
"domain": "musangseattle.com",
"city": "Seattle",
"region": "WA",
"country": "USA",
"address": "2524 Beacon Ave S, Seattle, WA 98144",
"phone": "",
"category": "Restaurant",
"commerce_platform": "Tock",
"commerce_type": "service_booking",
"has_online_checkout_or_booking": true,
"ordering_paths": ["/reservations", "/events"],
"delivery_pickup_options": ["service"],
"hours": "",
"lat_lng": null,
"notes": "Prepaid events/reservations via Tock."
},
{
"name": "Canlis (Reservations & Experiences)",
"url": "https://www.canlis.com/
",
"domain": "canlis.com",
"city": "Seattle",
"region": "WA",
"country": "USA",
"address": "2576 Aurora Ave N, Seattle, WA 98109",
"phone": "",
"category": "Restaurant",
"commerce_platform": "Tock",
"commerce_type": "service_booking",
"has_online_checkout_or_booking": true,
"ordering_paths": ["/reservations", "/experiences"],
"delivery_pickup_options": ["service"],
"hours": "",
"lat_lng": null,
"notes": "Prepaid reservations via Tock."
},
{
"name": "Argosy Cruises",
"url": "https://www.argosycruises.com/
",
"domain": "argosycruises.com",
"city": "Seattle",
"region": "WA",
"country": "USA",
"address": "1101 Alaskan Way, Seattle, WA 98101",
"phone": "",
"category": "Tours",
"commerce_platform": "FareHarbor/Other",
"commerce_type": "service_booking",
"has_online_checkout_or_booking": true,
"ordering_paths": ["/book", "/tickets"],
"delivery_pickup_options": ["digital"],
"hours": "",
"lat_lng": null,
"notes": "Cruise tickets bookable online."
},
{
"name": "Bill Speidel's Underground Tour",
"url": "https://www.undergroundtour.com/
",
"domain": "undergroundtour.com",
"city": "Seattle",
"region": "WA",
"country": "USA",
"address": "614 1st Ave, Seattle, WA 98104",
"phone": "",
"category": "Tours",
"commerce_platform": "FareHarbor",
"commerce_type": "service_booking",
"has_online_checkout_or_booking": true,
"ordering_paths": ["/tickets", "/book"],
"delivery_pickup_options": ["digital"],
"hours": "",
"lat_lng": null,
"notes": "Tour tickets via FareHarbor."
},
{
"name": "Eat Seattle",
"url": "https://eatseattletours.com/
",
"domain": "eatseattletours.com",
"city": "Seattle",
"region": "WA",
"country": "USA",
"address": "Pike Place Market, Seattle, WA",
"phone": "",
"category": "Tours",
"commerce_platform": "FareHarbor",
"commerce_type": "service_booking",
"has_online_checkout_or_booking": true,
"ordering_paths": ["/book-now", "/schedule"],
"delivery_pickup_options": ["digital"],
"hours": "",
"lat_lng": null,
"notes": "Market & cooking tours online booking."
},
{
"name": "Show Me Seattle",
"url": "https://www.showmeseattle.com/
",
"domain": "showmeseattle.com",
"city": "Seattle",
"region": "WA",
"country": "USA",
"address": "",
"phone": "",
"category": "Tours",
"commerce_platform": "FareHarbor",
"commerce_type": "service_booking",
"has_online_checkout_or_booking": true,
"ordering_paths": ["/book", "/tours"],
"delivery_pickup_options": ["digital"],
"hours": "",
"lat_lng": null,
"notes": "City tours; online booking."
},
{
"name": "Seattle Food Tours",
"url": "https://www.seattlefoodtours.com/
",
"domain": "seattlefoodtours.com",
"city": "Seattle",
"region": "WA",
"country": "USA",
"address": "",
"phone": "",
"category": "Tours",
"commerce_platform": "FareHarbor/Other",
"commerce_type": "service_booking",
"has_online_checkout_or_booking": true,
"ordering_paths": ["/book", "/reserve"],
"delivery_pickup_options": ["digital"],
"hours": "",
"lat_lng": null,
"notes": "Food tours booking."
},
{
"name": "SIFF (Seattle International Film Festival)",
"url": "https://www.siff.net/
",
"domain": "siff.net",
"city": "Seattle",
"region": "WA",
"country": "USA",
"address": "Film Center, Seattle Center, Seattle, WA",
"phone": "",
"category": "Tickets/Entertainment",
"commerce_platform": "Ticketing Platform",
"commerce_type": "service_booking",
"has_online_checkout_or_booking": true,
"ordering_paths": ["/tickets", "/calendar"],
"delivery_pickup_options": ["digital"],
"hours": "",
"lat_lng": null,
"notes": "Film tickets online."
},
{
"name": "Seattle Rep",
"url": "https://www.seattlerep.org/
",
"domain": "seattlerep.org",
"city": "Seattle",
"region": "WA",
"country": "USA",
"address": "155 Mercer St, Seattle, WA 98109",
"phone": "",
"category": "Theater",
"commerce_platform": "AudienceView/Other",
"commerce_type": "service_booking",
"has_online_checkout_or_booking": true,
"ordering_paths": ["/tickets", "/shows"],
"delivery_pickup_options": ["digital"],
"hours": "",
"lat_lng": null,
"notes": "Buy show tickets online."
},
{
"name": "The 5th Avenue Theatre",
"url": "https://www.5thavenue.org/
",
"domain": "5thavenue.org",
"city": "Seattle",
"region": "WA",
"country": "USA",
"address": "1308 5th Ave, Seattle, WA 98101",
"phone": "",
"category": "Theater",
"commerce_platform": "Ticketing Platform",
"commerce_type": "service_booking",
"has_online_checkout_or_booking": true,
"ordering_paths": ["/tickets", "/events"],
"delivery_pickup_options": ["digital"],
"hours": "",
"lat_lng": null,
"notes": "Tickets available online."
},
{
"name": "Seattle Symphony",
"url": "https://www.seattlesymphony.org/
",
"domain": "seattlesymphony.org",
"city": "Seattle",
"region": "WA",
"country": "USA",
"address": "200 University St, Seattle, WA 98101",
"phone": "",
"category": "Music Venue",
"commerce_platform": "Ticketing Platform",
"commerce_type": "service_booking",
"has_online_checkout_or_booking": true,
"ordering_paths": ["/tickets", "/calendar"],
"delivery_pickup_options": ["digital"],
"hours": "",
"lat_lng": null,
"notes": "Buy concert tickets online."
},
{
"name": "Seattle Opera",
"url": "https://www.seattleopera.org/
",
"domain": "seattleopera.org",
"city": "Seattle",
"region": "WA",
"country": "USA",
"address": "363 Mercer St, Seattle, WA 98109",
"phone": "",
"category": "Music Venue",
"commerce_platform": "Ticketing Platform",
"commerce_type": "service_booking",
"has_online_checkout_or_booking": true,
"ordering_paths": ["/tickets", "/calendar"],
"delivery_pickup_options": ["digital"],
"hours": "",
"lat_lng": null,
"notes": "Opera tickets online."
},
{
"name": "Seattle Art Museum Shop",
"url": "https://www.shopsam.org/
",
"domain": "shopsam.org",
"city": "Seattle",
"region": "WA",
"country": "USA",
"address": "1300 1st Ave, Seattle, WA 98101",
"phone": "",
"category": "Museum Store",
"commerce_platform": "Shopify",
"commerce_type": "products_ecommerce",
"has_online_checkout_or_booking": true,
"ordering_paths": ["/collections", "/cart", "/checkout"],
"delivery_pickup_options": ["shipping", "pickup"],
"hours": "",
"lat_lng": null,
"notes": "SAM shop online."
},
{
"name": "Frye Art Museum Store",
"url": "https://store.fryemuseum.org/
",
"domain": "fryemuseum.org",
"city": "Seattle",
"region": "WA",
"country": "USA",
"address": "704 Terry Ave, Seattle, WA 98104",
"phone": "",
"category": "Museum Store",
"commerce_platform": "Shopify",
"commerce_type": "products_ecommerce",
"has_online_checkout_or_booking": true,
"ordering_paths": ["/collections", "/checkout"],
"delivery_pickup_options": ["shipping", "pickup"],
"hours": "",
"lat_lng": null,
"notes": "Shopify museum store."
},
{
"name": "MOHAI Store",
"url": "https://museumstore.mohai.org/
",
"domain": "mohai.org",
"city": "Seattle",
"region": "WA",
"country": "USA",
"address": "860 Terry Ave N, Seattle, WA 98109",
"phone": "",
"category": "Museum Store",
"commerce_platform": "Shopify",
"commerce_type": "products_ecommerce",
"has_online_checkout_or_booking": true,
"ordering_paths": ["/collections", "/checkout"],
"delivery_pickup_options": ["shipping", "pickup"],
"hours": "",
"lat_lng": null,
"notes": "Online store for MOHAI."
},
{
"name": "Henry Art Gallery Shop",
"url": "https://shop.henryart.org/
",
"domain": "henryart.org",
"city": "Seattle",
"region": "WA",
"country": "USA",
"address": "15th Ave NE & NE 41st St, Seattle, WA 98195",
"phone": "",
"category": "Museum Store",
"commerce_platform": "Shopify",
"commerce_type": "products_ecommerce",
"has_online_checkout_or_booking": true,
"ordering_paths": ["/collections", "/checkout"],
"delivery_pickup_options": ["shipping", "pickup"],
"hours": "",
"lat_lng": null,
"notes": "Online museum shop."
},
{
"name": "The Museum of Flight Store",
"url": "https://store.museumofflight.org/
",
"domain": "museumofflight.org",
"city": "Seattle",
"region": "WA",
"country": "USA",
"address": "9404 E Marginal Way S, Seattle, WA 98108",
"phone": "",
"category": "Museum Store",
"commerce_platform": "Lightspeed/Other",
"commerce_type": "products_ecommerce",
"has_online_checkout_or_booking": true,
"ordering_paths": ["/", "/cart", "/checkout"],
"delivery_pickup_options": ["shipping"],
"hours": "",
"lat_lng": null,
"notes": "Online gift shop."
},
{
"name": "Burke Museum Store",
"url": "https://shop.burkemuseum.org/
",
"domain": "burkemuseum.org",
"city": "Seattle",
"region": "WA",
"country": "USA",
"address": "4300 15th Ave NE, Seattle, WA 98195",
"phone": "",
"category": "Museum Store",
"commerce_platform": "Shopify",
"commerce_type": "products_ecommerce",
"has_online_checkout_or_booking": true,
"ordering_paths": ["/collections", "/checkout"],
"delivery_pickup_options": ["shipping", "pickup"],
"hours": "",
"lat_lng": null,
"notes": "Burke Museum online shop."
},
{
"name": "Fremont Brewing",
"url": "https://www.fremontbrewing.com/
",
"domain": "fremontbrewing.com",
"city": "Seattle",
"region": "WA",
"country": "USA",
"address": "1050 N 34th St, Seattle, WA 98103",
"phone": "",
"category": "Brewery",
"commerce_platform": "Shopify",
"commerce_type": "products_ecommerce",
"has_online_checkout_or_booking": true,
"ordering_paths": ["/shop", "/cart", "/checkout"],
"delivery_pickup_options": ["shipping"],
"hours": "",
"lat_lng": null,
"notes": "Merch/e-gift cards online."
},
{
"name": "Reuben's Brews",
"url": "https://reubensbrews.com/
",
"domain": "reubensbrews.com",
"city": "Seattle",
"region": "WA",
"country": "USA",
"address": "5010 14th Ave NW, Seattle, WA 98107",
"phone": "",
"category": "Brewery",
"commerce_platform": "Shopify",
"commerce_type": "mixed",
"has_online_checkout_or_booking": true,
"ordering_paths": ["/shop", "/cart", "/checkout", "/order"],
"delivery_pickup_options": ["shipping", "pickup"],
"hours": "",
"lat_lng": null,
"notes": "Merch online; occasional beer pre-orders."
},
{
"name": "Stoup Brewing",
"url": "https://www.stoupbrewing.com/
",
"domain": "stoupbrewing.com",
"city": "Seattle",
"region": "WA",
"country": "USA",
"address": "1108 NW 52nd St, Seattle, WA 98107",
"phone": "",
"category": "Brewery",
"commerce_platform": "Square/Shopify",
"commerce_type": "products_ecommerce",
"has_online_checkout_or_booking": true,
"ordering_paths": ["/shop", "/checkout"],
"delivery_pickup_options": ["pickup", "shipping"],
"hours": "",
"lat_lng": null,
"notes": "Merch/gift cards."
},
{
"name": "Holy Mountain Brewing",
"url": "https://holymountainbrewing.com/
",
"domain": "holymountainbrewing.com",
"city": "Seattle",
"region": "WA",
"country": "USA",
"address": "1421 Elliott Ave W, Seattle, WA 98119",
"phone": "",
"category": "Brewery",
"commerce_platform": "Square/Shopify",
"commerce_type": "products_ecommerce",
"has_online_checkout_or_booking": true,
"ordering_paths": ["/shop", "/checkout"],
"delivery_pickup_options": ["pickup", "shipping"],
"hours": "",
"lat_lng": null,
"notes": "Online merch shop."
},
{
"name": "Georgetown Brewing",
"url": "https://georgetownbeer.com/
",
"domain": "georgetownbeer.com",
"city": "Seattle",
"region": "WA",
"country": "USA",
"address": "5200 Denver Ave S, Seattle, WA 98108",
"phone": "",
"category": "Brewery",
"commerce_platform": "Square",
"commerce_type": "products_ecommerce",
"has_online_checkout_or_booking": true,
"ordering_paths": ["/shop"],
"delivery_pickup_options": ["pickup", "shipping"],
"hours": "",
"lat_lng": null,
"notes": "Merch available online."
},
{
"name": "Pike Brewing",
"url": "https://www.pikebrewing.com/
",
"domain": "pikebrewing.com",
"city": "Seattle",
"region": "WA",
"country": "USA",
"address": "1415 1st Ave, Seattle, WA 98101",
"phone": "",
"category": "Brewery",
"commerce_platform": "Square/Shopify",
"commerce_type": "mixed",
"has_online_checkout_or_booking": true,
"ordering_paths": ["/shop", "/order"],
"delivery_pickup_options": ["pickup", "shipping"],
"hours": "",
"lat_lng": null,
"notes": "Merch; some ordering for food."
},
{
"name": "Ghostfish Brewing Company",
"url": "https://ghostfishbrewing.com/
",
"domain": "ghostfishbrewing.com",
"city": "Seattle",
"region": "WA",
"country": "USA",
"address": "2942 1st Ave S, Seattle, WA 98134",
"phone": "",
"category": "Brewery",
"commerce_platform": "Square/Other",
"commerce_type": "mixed",
"has_online_checkout_or_booking": true,
"ordering_paths": ["/shop", "/order-online"],
"delivery_pickup_options": ["pickup", "shipping"],
"hours": "",
"lat_lng": null,
"notes": "Merch and food ordering."
}]